{"type": "FeatureCollection", "name": "stops", "crs": {"type": "name", "properties": {"name": "urn:ogc:def:crs:OGC:1.3:CRS84"}}, "features": [{"type": "Feature", "properties": {"stop_id": "010053_03", "stop_name": "国立駅北口", "zone_id": "010053_03", "location_type": "0"}, "geometry": {"type": "Point", "coordinates": [139.446268, 35.699483]}}, {"type": "Feature", "properties": {"stop_id": "020052_01", "stop_name": "高架下駐輪場前", "zone_id": "020052_01", "location_type": "0"}, "geometry": {"type": "Point", "coordinates": [139.441292, 35.699151]}}, {"type": "Feature", "properties": {"stop_id": "020052_02", "stop_name": "高架下駐輪場前", "zone_id": "020052_02", "location_type": "0"}, "geometry": {"type": "Point", "coordinates": [139.441455, 35.699216]}}, {"type": "Feature", "properties": {"stop_id": "030051_01", "stop_name": "北二丁目", "zone_id": "030051_01", "location_type": "0"}, "geometry": {"type": "Point", "coordinates": [139.43854, 35.700439]}}, {"type": "Feature", "properties": {"stop_id": "030051_02", "stop_name": "北二丁目", "zone_id": "030051_02", "location_type": "0"}, "geometry": {"type": "Point", "coordinates": [139.43864, 35.700486]}}, {"type": "Feature", "properties": {"stop_id": "040050_01", "stop_name": "北福祉館", "zone_id": "040050_01", "location_type": "0"}, "geometry": {"type": "Point", "coordinates": [139.43694, 35.70038]}}, {"type": "Feature", "properties": {"stop_id": "040050_02", "stop_name": "北福祉館", "zone_id": "040050_02", "location_type": "0"}, "geometry": {"type": "Point", "coordinates": [139.437063, 35.700427]}}, {"type": "Feature", "properties": {"stop_id": "050049_01", "stop_name": "４号棟東", "zone_id": "050049_01", "location_type": "0"}, "geometry": {"type": "Point", "coordinates": [139.43483, 35.700177]}}, {"type": "Feature", "properties": {"stop_id": "050049_02", "stop_name": "４号棟東", "zone_id": "050049_02", "location_type": "0"}, "geometry": {"type": "Point", "coordinates": [139.433617, 35.700077]}}, {"type": "Feature", "properties": {"stop_id": "060048_01", "stop_name": "北市民プラザ", "zone_id": "060048_01", "location_type": "0"}, "geometry": {"type": "Point", "coordinates": [139.432683, 35.699926]}}, {"type": "Feature", "properties": {"stop_id": "060048_02", "stop_name": "北市民プラザ", "zone_id": "060048_02", "location_type": "0"}, "geometry": {"type": "Point", "coordinates": [139.431358, 35.699808]}}, {"type": "Feature", "properties": {"stop_id": "070047_01", "stop_name": "北第一公園西", "zone_id": "070047_01", "location_type": "0"}, "geometry": {"type": "Point", "coordinates": [139.430414, 35.699634]}}, {"type": "Feature", "properties": {"stop_id": "070047_02", "stop_name": "北第一公園西", "zone_id": "070047_02", "location_type": "0"}, "geometry": {"type": "Point", "coordinates": [139.430164, 35.699662]}}, {"type": "Feature", "properties": {"stop_id": "080046_01", "stop_name": "西一丁目西", "zone_id": "080046_01", "location_type": "0"}, "geometry": {"type": "Point", "coordinates": [139.429484, 35.698044]}}, {"type": "Feature", "properties": {"stop_id": "080046_02", "stop_name": "西一丁目西", "zone_id": "080046_02", "location_type": "0"}, "geometry": {"type": "Point", "coordinates": [139.429521, 35.697041]}}, {"type": "Feature", "properties": {"stop_id": "090000_01", "stop_name": "都営西一丁目アパート", "zone_id": "090000_01", "location_type": "0"}, "geometry": {"type": "Point", "coordinates": [139.43075, 35.6972]}}, {"type": "Feature", "properties": {"stop_id": "100000_01", "stop_name": "くにたち西児童館", "zone_id": "100000_01", "location_type": "0"}, "geometry": {"type": "Point", "coordinates": [139.432469, 35.697071]}}, {"type": "Feature", "properties": {"stop_id": "110000_01", "stop_name": "国立西郵政宿舎", "zone_id": "110000_01", "location_type": "0"}, "geometry": {"type": "Point", "coordinates": [139.4355, 35.69716]}}, {"type": "Feature", "properties": {"stop_id": "120000_01", "stop_name": "ふれあい公園入口", "zone_id": "120000_01", "location_type": "0"}, "geometry": {"type": "Point", "coordinates": [139.4393, 35.69728]}}, {"type": "Feature", "properties": {"stop_id": "130000_01", "stop_name": "中一丁目", "zone_id": "130000_01", "location_type": "0"}, "geometry": {"type": "Point", "coordinates": [139.441664, 35.697355]}}, {"type": "Feature", "properties": {"stop_id": "140040_01", "stop_name": "国立駅南口", "zone_id": "140040_01", "location_type": "0"}, "geometry": {"type": "Point", "coordinates": [139.446183, 35.698293]}}, {"type": "Feature", "properties": {"stop_id": "153941_01", "stop_name": "国立公民館", "zone_id": "153941_01", "location_type": "0"}, "geometry": {"type": "Point", "coordinates": [139.443455, 35.697026]}}, {"type": "Feature", "properties": {"stop_id": "153941_02", "stop_name": "国立公民館", "zone_id": "153941_02", "location_type": "0"}, "geometry": {"type": "Point", "coordinates": [139.443117, 35.696927]}}, {"type": "Feature", "properties": {"stop_id": "160038_01", "stop_name": "国立学園", "zone_id": "160038_01", "location_type": "0"}, "geometry": {"type": "Point", "coordinates": [139.440534, 35.695642]}}, {"type": "Feature", "properties": {"stop_id": "160038_02", "stop_name": "国立学園", "zone_id": "160038_02", "location_type": "0"}, "geometry": {"type": "Point", "coordinates": [139.441565, 35.696199]}}, {"type": "Feature", "properties": {"stop_id": "170000_01", "stop_name": "音高", "zone_id": "170000_01", "location_type": "0"}, "geometry": {"type": "Point", "coordinates": [139.436793, 35.693856]}}, {"type": "Feature", "properties": {"stop_id": "180000_01", "stop_name": "ぶどう園西", "zone_id": "180000_01", "location_type": "0"}, "geometry": {"type": "Point", "coordinates": [139.436355, 35.691578]}}, {"type": "Feature", "properties": {"stop_id": "190000_01", "stop_name": "学園通り", "zone_id": "190000_01", "location_type": "0"}, "geometry": {"type": "Point", "coordinates": [139.4364, 35.69043]}}, {"type": "Feature", "properties": {"stop_id": "200000_01", "stop_name": "都営西三丁目アパート", "zone_id": "200000_01", "location_type": "0"}, "geometry": {"type": "Point", "coordinates": [139.436483, 35.6886]}}, {"type": "Feature", "properties": {"stop_id": "210000_01", "stop_name": "富士見台防災センター前", "zone_id": "210000_01", "location_type": "0"}, "geometry": {"type": "Point", "coordinates": [139.436607, 35.687185]}}, {"type": "Feature", "properties": {"stop_id": "220034_01", "stop_name": "さくら通り西", "zone_id": "220034_01", "location_type": "0"}, "geometry": {"type": "Point", "coordinates": [139.439342, 35.686884]}}, {"type": "Feature", "properties": {"stop_id": "220034_02", "stop_name": "さくら通り西", "zone_id": "220034_02", "location_type": "0"}, "geometry": {"type": "Point", "coordinates": [139.439237, 35.686809]}}, {"type": "Feature", "properties": {"stop_id": "230033_01", "stop_name": "国立郵便局", "zone_id": "230033_01", "location_type": "0"}, "geometry": {"type": "Point", "coordinates": [139.442242, 35.686514]}}, {"type": "Feature", "properties": {"stop_id": "230033_02", "stop_name": "国立郵便局", "zone_id": "230033_02", "location_type": "0"}, "geometry": {"type": "Point", "coordinates": [139.442083, 35.686449]}}, {"type": "Feature", "properties": {"stop_id": "240032_01", "stop_name": "くにたち福祉会館", "zone_id": "240032_01", "location_type": "0"}, "geometry": {"type": "Point", "coordinates": [139.444509, 35.687184]}}, {"type": "Feature", "properties": {"stop_id": "240032_02", "stop_name": "くにたち福祉会館", "zone_id": "240032_02", "location_type": "0"}, "geometry": {"type": "Point", "coordinates": [139.444482, 35.687172]}}, {"type": "Feature", "properties": {"stop_id": "250031_01", "stop_name": "多摩障害者センター西", "zone_id": "250031_01", "location_type": "0"}, "geometry": {"type": "Point", "coordinates": [139.445449, 35.686494]}}, {"type": "Feature", "properties": {"stop_id": "250031_02", "stop_name": "多摩障害者センター西", "zone_id": "250031_02", "location_type": "0"}, "geometry": {"type": "Point", "coordinates": [139.445394, 35.686404]}}, {"type": "Feature", "properties": {"stop_id": "260030_01", "stop_name": "くにたち中央図書館入口", "zone_id": "260030_01", "location_type": "0"}, "geometry": {"type": "Point", "coordinates": [139.445151, 35.685036]}}, {"type": "Feature", "properties": {"stop_id": "260030_02", "stop_name": "くにたち中央図書館入口", "zone_id": "260030_02", "location_type": "0"}, "geometry": {"type": "Point", "coordinates": [139.445041, 35.684651]}}, {"type": "Feature", "properties": {"stop_id": "270029_01", "stop_name": "谷保駅西", "zone_id": "270029_01", "location_type": "0"}, "geometry": {"type": "Point", "coordinates": [139.444443, 35.682914]}}, {"type": "Feature", "properties": {"stop_id": "270029_02", "stop_name": "谷保駅西", "zone_id": "270029_02", "location_type": "0"}, "geometry": {"type": "Point", "coordinates": [139.444638, 35.683386]}}, {"type": "Feature", "properties": {"stop_id": "280028_01", "stop_name": "国立市役所", "zone_id": "280028_01", "location_type": "0"}, "geometry": {"type": "Point", "coordinates": [139.441028, 35.683861]}}, {"type": "Feature", "properties": {"stop_id": "000035_02", "stop_name": "都立五商南", "zone_id": "000035_02", "location_type": "0"}, "geometry": {"type": "Point", "coordinates": [139.438975, 35.68807]}}, {"type": "Feature", "properties": {"stop_id": "000036_02", "stop_name": "ぶどう園東", "zone_id": "000036_02", "location_type": "0"}, "geometry": {"type": "Point", "coordinates": [139.438821, 35.691331]}}, {"type": "Feature", "properties": {"stop_id": "000037_02", "stop_name": "中防災センター入口", "zone_id": "000037_02", "location_type": "0"}, "geometry": {"type": "Point", "coordinates": [139.438765, 35.692772]}}, {"type": "Feature", "properties": {"stop_id": "000042_02", "stop_name": "音大附属小学校東", "zone_id": "000042_02", "location_type": "0"}, "geometry": {"type": "Point", "coordinates": [139.439221, 35.69657]}}, {"type": "Feature", "properties": {"stop_id": "000043_02", "stop_name": "音大附属小学校北", "zone_id": "000043_02", "location_type": "0"}, "geometry": {"type": "Point", "coordinates": [139.436972, 35.696492]}}, {"type": "Feature", "properties": {"stop_id": "000044_02", "stop_name": "西一丁目交差点", "zone_id": "000044_02", "location_type": "0"}, "geometry": {"type": "Point", "coordinates": [139.434138, 35.696414]}}, {"type": "Feature", "properties": {"stop_id": "000045_02", "stop_name": "児童遊園東", "zone_id": "000045_02", "location_type": "0"}, "geometry": {"type": "Point", "coordinates": [139.430653, 35.696317]}}, {"type": "Feature", "properties": {"stop_id": "13023902_01", "stop_name": "国立駅子育て支援施設前", "zone_id": "13023902_01", "location_type": "0"}, "geometry": {"type": "Point", "coordinates": [139.445614, 35.698927]}}]}